,City,Country,Temperatures (F),Latitude,Longitude,Humidity %,Wind (mph),Cloudiness
0,manzhouli,CN,6.35,49.6,117.4333,95,5.06,96
1,khatanga,RU,-19.52,71.9667,102.5,83,4.63,34
2,vaini,TO,82.4,-21.2,-175.2,89,9.22,75
3,nouadhibou,MR,64.76,20.931,-17.0347,73,17.67,0
4,ranong,TH,74.19,9.9658,98.6348,87,4.38,41
5,butaritari,KI,81.64,3.0707,172.7902,76,16.51,99
6,yichang,CN,43.0,30.7144,111.2847,80,1.68,0
7,hermanus,ZA,68.0,-34.4187,19.2345,83,1.99,2
8,sao joao da barra,BR,75.7,-21.6403,-41.0511,86,4.92,99
9,torbay,CA,24.87,47.6666,-52.7314,80,23.02,75
10,hilo,US,73.98,19.7297,-155.09,53,4.61,75
11,busselton,AU,55.63,-33.65,115.3333,98,7.11,24
12,albany,US,23.38,42.6001,-73.9662,47,4.16,99
13,urbano santos,BR,75.76,-3.2078,-43.4036,93,3.87,100
14,rikitea,PF,78.67,-23.1203,-134.9692,77,14.83,18
15,cape town,ZA,68.56,-33.9258,18.4232,83,16.11,0
16,avera,US,67.1,33.194,-82.5271,88,5.75,90
17,hobart,AU,64.2,-42.8794,147.3294,59,11.5,0
18,yellowknife,CA,-5.89,62.456,-114.3525,65,4.61,1
19,landerneau,FR,30.2,48.4525,-4.2525,59,19.57,0
20,sechura,PE,78.31,-5.5569,-80.8222,67,14.61,10
21,hami,CN,28.98,42.8,93.45,82,8.01,81
22,qaanaaq,GL,6.76,77.484,-69.3632,74,9.95,100
23,tomatlan,MX,79.54,19.9333,-105.25,52,10.33,0
24,berlevag,NO,22.82,70.8578,29.0864,58,17.27,40
25,cururupu,BR,78.28,-1.8283,-44.8683,83,3.29,100
26,lasa,IT,32.13,46.6166,10.7002,86,4.61,40
27,nanortalik,GL,22.96,60.1432,-45.2371,89,10.47,28
28,bluff,NZ,53.82,-46.6,168.3333,87,32.82,100
29,puerto ayora,EC,78.3,-0.7393,-90.3518,83,5.75,75
30,flinders,AU,73.29,-34.5833,150.8552,75,1.99,3
31,borovskoy,KZ,-5.12,53.8,64.15,92,6.29,94
32,sabae,JP,35.6,35.9465,136.185,93,4.61,40
33,mataura,NZ,50.88,-46.1927,168.8643,84,13.42,100
34,hasaki,JP,39.07,35.7333,140.8333,65,10.36,20
35,penzance,GB,37.42,50.1186,-5.5371,60,20.71,75
36,krasnorechenskiy,RU,9.05,44.6265,135.3532,92,6.93,39
37,rosarito,MX,60.17,32.3333,-117.0333,55,9.22,40
38,airai,TL,65.66,-8.9266,125.4092,95,1.12,85
39,pueblo nuevo,MX,63.63,23.3833,-105.3833,34,7.29,0
40,tuktoyaktuk,CA,-25.6,69.4541,-133.0374,75,11.5,20
41,grand baie,MU,75.0,-20.0182,57.5802,82,5.99,23
42,nikolskoye,RU,3.15,59.7035,30.7861,85,4.12,0
43,khakhea,BW,73.36,-24.6895,23.494,62,5.84,66
44,saint-augustin,CA,12.54,51.226,-58.6502,95,11.48,100
45,los llanos de aridane,ES,58.6,28.6585,-17.9182,82,5.75,20
46,aripuana,BR,75.24,-9.1667,-60.6333,95,2.28,93
47,port alfred,ZA,73.99,-33.5906,26.891,93,1.01,16
48,kashiwazaki,JP,42.37,37.3667,138.55,67,13.98,68
49,samana,DO,78.8,19.2056,-69.3369,83,4.61,20
50,kushiro,JP,15.8,42.975,144.3747,86,5.75,75
51,punta arenas,CL,62.29,-53.15,-70.9167,63,11.5,0
52,tura,IN,59.31,25.5198,90.2201,48,2.28,4
53,kapaa,US,73.96,22.0752,-159.319,53,11.5,20
54,irtyshskiy,RU,-22.9,58.3333,68.1333,85,5.48,0
55,temir,KZ,22.8,49.1414,57.13,98,10.8,100
56,san quintin,MX,58.78,30.4833,-115.95,68,17.07,7
57,bandarbeyla,SO,73.63,9.4942,50.8122,76,17.63,56
58,ushuaia,AR,77.0,-54.8,-68.3,27,18.41,0
59,victoria,HK,58.98,22.2855,114.1577,85,1.01,63
60,hanna,CA,-17.0,51.6334,-111.9018,68,13.0,100
61,jamestown,US,20.79,42.097,-79.2353,58,3.44,90
62,yabelo,ET,61.88,4.8833,38.0833,57,8.79,95
63,castro,BR,60.42,-24.7911,-50.0119,95,6.67,51
64,aquiraz,BR,82.4,-3.9014,-38.3911,78,6.91,20
65,bredasdorp,ZA,68.0,-34.5322,20.0403,83,4.61,39
66,erenhot,CN,35.62,43.6475,111.9767,80,23.82,50
67,naliya,IN,63.5,23.2667,68.8333,71,6.64,82
68,ribeira grande,PT,58.53,38.5167,-28.7,68,34.85,86
69,emerald,AU,75.2,-23.5333,148.1667,78,13.8,75
70,anloga,GH,84.2,5.7947,0.8973,84,9.22,20
71,dikson,RU,-21.44,73.5069,80.5464,88,8.32,34
72,yumen,CN,27.39,40.2833,97.2,81,2.98,8
73,saint george,US,65.8,37.1041,-113.5841,25,6.91,1
74,sola,VU,86.0,-13.8833,167.55,79,11.97,75
75,tasiilaq,GL,8.6,65.6145,-37.6368,52,1.14,75
76,esperance,AU,60.8,-33.8667,121.9,72,9.22,90
77,maxixe,MZ,77.92,-23.8597,35.3472,85,11.83,32
78,portland,US,44.73,45.5234,-122.6762,46,5.75,75
79,mayskiy,RU,44.6,47.6931,40.1025,93,4.47,75
80,mangrol,IN,67.87,21.1167,70.1167,42,8.66,100
81,henties bay,NA,68.0,-22.116,14.2845,89,8.01,99
82,lensk,RU,2.28,60.7253,114.9278,92,4.83,100
83,husavik,IS,15.8,66.0449,-17.3389,92,2.3,90
84,port lincoln,AU,74.62,-34.7333,135.8667,54,13.15,60
85,cayenne,GF,75.2,4.9333,-52.3333,100,3.44,75
86,fairbanks,US,-0.08,64.8378,-147.7164,71,2.73,1
87,hithadhoo,MV,81.3,-0.6,73.0833,80,12.17,47
88,pimenta bueno,BR,74.91,-11.6725,-61.1936,96,2.89,100
89,aklavik,CA,-24.65,68.2191,-135.0107,69,2.3,0
90,severo-kurilsk,RU,27.61,50.6789,156.125,90,10.31,100
91,mar del plata,AR,67.73,-38.0023,-57.5575,83,10.36,75
92,faya,SA,52.7,18.3851,42.4509,66,1.43,0
93,fort nelson,CA,-4.0,58.8053,-122.7002,71,11.5,90
94,kosh-agach,RU,-21.14,50.0,88.6667,72,0.63,15
95,codrington,AU,78.53,-38.2667,141.9667,41,13.6,90
96,genhe,CN,3.7,50.7833,121.5167,91,1.5,53
97,vuktyl,RU,-19.32,63.8567,57.3094,88,4.05,97
98,rylsk,RU,7.03,51.5655,34.6822,95,7.02,76
99,yagodnoye,RU,-1.46,62.55,149.6667,90,2.59,100
100,vavoua,CI,79.74,7.3819,-6.4778,56,4.41,13
101,yarim,YE,45.66,14.298,44.3779,56,5.97,21
102,kavieng,PG,83.23,-2.5744,150.7967,74,7.9,87
103,nabire,ID,78.08,-3.3667,135.4833,88,1.79,100
104,timberlake,US,39.4,37.3207,-79.2575,65,3.44,90
105,hovd,MN,10.98,48.0056,91.6419,55,7.54,47
106,coquimbo,CL,66.2,-29.9533,-71.3436,77,11.5,20
107,mahebourg,MU,78.8,-20.4081,57.7,78,14.97,40
108,vila velha,BR,79.92,-20.3297,-40.2925,83,5.75,40
109,taltal,CL,67.3,-25.4,-70.4833,71,4.36,24
110,leningradskiy,RU,-28.68,69.3833,178.4167,83,8.01,11
111,fortuna foothills,US,74.7,32.6578,-114.4119,23,4.61,1
112,te anau,NZ,50.59,-45.4167,167.7167,84,6.24,100
113,deputatskiy,RU,-22.47,69.3,139.9,89,3.56,40
114,araouane,ML,71.83,18.9048,-3.5265,17,10.65,76
115,clyde river,CA,6.8,70.4692,-68.5914,85,25.77,0
116,new norfolk,AU,64.99,-42.7826,147.0587,45,3.0,15
117,lagoa,PT,57.15,39.05,-27.9833,70,36.8,73
118,verkhnyaya inta,RU,-17.93,65.9811,60.3094,88,7.34,100
119,mangai,CD,73.53,-4.05,19.5333,83,1.41,100
120,saskylakh,RU,-22.7,71.9167,114.0833,83,8.32,0
121,sinnamary,GF,76.87,5.3833,-52.95,83,11.81,67
122,hambantota,LK,72.63,6.1241,81.1185,74,15.1,100
123,ribeira brava,PT,57.42,32.65,-17.0667,95,1.01,81
124,pontian kecil,MY,75.67,1.4801,103.3899,94,2.3,20
125,zomin,UZ,47.73,39.9606,68.3958,51,4.16,5
126,caravelas,BR,76.15,-17.7125,-39.2481,80,4.99,21
127,morant bay,JM,80.82,17.8815,-76.4093,74,25.32,20
128,constitucion,CL,65.01,-35.3333,-72.4167,83,3.29,22
129,bowen,AU,77.0,-20.0167,148.2333,88,5.75,40
130,tessalit,ML,68.65,20.1986,1.0114,18,9.53,3
131,nanhai,CN,45.0,30.1282,111.7784,94,3.27,36
132,kruisfontein,ZA,70.0,-34.0033,24.7314,92,0.65,55
133,carnarvon,AU,69.8,-24.8667,113.6333,88,18.41,0
134,namibe,AO,73.56,-15.1961,12.1522,72,2.86,100
135,arraial do cabo,BR,75.2,-22.9661,-42.0278,88,5.75,40
136,tsalka,GE,35.83,41.5946,44.0891,80,6.73,18
137,avarua,CK,86.0,-21.2078,-159.775,66,9.22,100
138,ucluelet,CA,39.07,48.9329,-125.5528,70,4.61,75
139,kaitangata,NZ,57.99,-46.2817,169.8464,58,25.01,95
140,lagunas,PE,80.6,-5.2269,-75.6753,85,1.14,100
141,nha trang,VN,73.4,12.25,109.1833,73,9.22,20
142,the valley,AI,77.77,18.217,-63.0578,73,14.97,40
143,port blair,IN,75.22,11.6667,92.75,66,8.9,18
144,ilulissat,GL,14.0,69.2167,-51.1,44,16.11,5
145,vila franca do campo,PT,59.52,37.7167,-25.4333,88,19.57,40
146,ahipara,NZ,64.89,-35.1667,173.1667,81,11.14,98
147,kavaratti,IN,81.23,10.5669,72.642,64,9.51,83
148,bumba,CD,74.43,2.1833,22.4667,40,1.83,89
149,thompson,CA,-18.4,55.7435,-97.8558,69,9.22,75
150,beirut,LB,55.72,33.8889,35.4944,72,2.3,75
151,bloomingdale,US,78.24,27.8936,-82.2404,51,5.37,1
152,guayaramerin,BO,72.46,-10.8368,-65.3614,99,1.45,100
153,vostok,RU,-1.19,46.4856,135.8833,93,4.34,57
154,namatanai,PG,82.6,-3.6667,152.4333,76,3.65,71
155,riohacha,CO,80.8,11.5444,-72.9072,59,11.21,0
156,souillac,MU,78.8,-20.5167,57.5167,78,14.97,40
157,pringsewu,ID,72.7,-5.3582,104.9744,93,2.15,77
158,saint-philippe,RE,73.54,-21.3585,55.7679,73,2.3,20
159,blackwater,AU,75.76,-23.5833,148.8833,69,11.79,92
160,half moon bay,US,59.02,37.4636,-122.4286,76,11.5,1
161,geraldton,AU,57.2,-28.7667,114.6,88,5.75,0
162,goya,AR,75.65,-29.14,-59.2626,55,2.91,80
163,richards bay,ZA,76.17,-28.783,32.0377,84,1.74,87
164,dubbo,AU,71.6,-32.25,148.6167,64,9.22,0
165,candabong,PH,78.69,9.7343,124.5383,87,4.94,99
166,khudumelapye,BW,70.81,-23.8833,24.75,69,4.68,100
167,victor harbor,AU,85.42,-35.5667,138.6167,30,14.2,20
168,lubao,PH,74.3,14.9167,120.55,100,2.3,75
169,lebu,CL,64.89,-37.6167,-73.65,78,9.89,1
170,hammerfest,NO,26.6,70.6634,23.6821,80,11.5,90
171,ossora,RU,13.95,59.2353,163.0719,95,6.76,99
172,haines junction,CA,-16.6,60.7522,-137.5108,43,1.14,3
173,tiksi,RU,-9.71,71.6872,128.8694,87,2.73,100
174,mareeba,AU,78.04,-17.0,145.4333,89,1.14,90
175,saldanha,ZA,66.2,-33.0117,17.9442,77,10.36,0
176,fort saint james,CA,-2.76,54.4333,-124.25,84,2.98,1
177,cairns,AU,79.41,-16.9167,145.7667,89,1.14,90
178,malanje,AO,64.6,-9.5402,16.341,96,6.51,98
179,oranjemund,NA,65.14,-28.55,16.4333,81,10.31,23
180,chippewa falls,US,5.2,44.9369,-91.3929,43,10.36,1
181,touros,BR,82.4,-5.1989,-35.4608,74,11.5,75
182,sorong,ID,82.44,-0.8833,131.25,78,3.56,99
183,sao filipe,CV,72.01,14.8961,-24.4956,76,11.14,50
184,elizabeth city,US,42.22,36.2946,-76.2511,75,11.5,90
185,kalaleh,IR,61.16,37.3807,55.4916,33,6.44,98
186,estremoz,PT,52.99,38.8443,-7.5859,94,15.01,98
187,san cristobal,VE,82.4,7.7669,-72.225,61,6.91,40
188,galle,LK,73.13,6.0367,80.217,86,5.64,85
189,staromyshastovskaya,RU,45.45,45.3433,39.0761,87,6.71,0
190,college,US,-0.54,64.8569,-147.8028,65,3.44,90
191,rockhampton,AU,77.0,-23.3833,150.5,69,8.05,90
192,bacolod,PH,78.76,10.6667,122.95,81,1.68,33
193,norden,DE,27.73,53.6,7.2,57,4.0,99
194,muros,ES,50.81,42.7762,-9.0603,93,10.0,100
195,mao,ES,46.4,39.8885,4.2658,87,4.61,0
196,talnakh,RU,-13.94,69.4865,88.3972,79,3.15,75
197,lompoc,US,58.8,34.6391,-120.4579,59,14.97,1
198,mizan teferi,ET,67.8,6.9833,35.5833,42,1.66,99
199,west bay,KY,81.18,19.3667,-81.4167,69,9.22,75
200,saint-pierre,RE,76.05,-21.3393,55.4781,73,2.3,20
201,ancud,CL,78.17,-41.8697,-73.8203,47,6.91,0
202,tambacounda,SN,85.14,13.7539,-13.7586,14,7.72,96
203,krasnoselkup,RU,-23.03,65.7,82.4667,87,5.3,100
204,mokhsogollokh,RU,-19.41,61.4681,128.9203,87,3.71,9
205,kinston,US,52.65,35.2627,-77.5816,58,5.75,90
206,westport,US,30.18,41.1415,-73.3579,43,3.62,1
207,tarpon springs,US,70.75,28.1461,-82.7568,78,4.61,69
208,georgetown,MY,78.4,5.4112,100.3354,78,2.3,20
209,florianopolis,BR,77.0,-27.6146,-48.5012,73,4.61,40
210,kattivakkam,IN,68.0,13.2167,80.3167,88,2.86,20
211,naze,JP,57.2,28.3667,129.4833,88,6.91,75
212,haapiti,PF,75.09,-17.5667,-149.8667,78,11.5,75
213,bethel,US,27.73,41.3712,-73.414,46,3.44,1
214,turbe,BA,44.78,44.2436,17.5714,84,1.25,100
215,karymskoye,RU,14.79,51.6167,114.35,95,1.48,100
216,jinchang,CN,32.7,38.4953,102.1739,74,6.11,24
217,kalmunai,LK,70.09,7.4167,81.8167,78,7.23,76
218,atuona,PF,79.12,-9.8,-139.0333,78,17.13,1
219,qasigiannguit,GL,14.0,68.8193,-51.1922,44,16.11,0
220,bambous virieux,MU,77.0,-20.3428,57.7575,78,14.97,40
221,mount gambier,AU,71.6,-37.8333,140.7667,53,5.75,79
222,mkushi,ZM,65.86,-13.6202,29.3939,95,2.1,100
223,los angeles,US,61.32,34.0522,-118.2437,55,4.61,20
224,provideniya,RU,-9.4,64.3833,-173.3,64,17.9,0
225,bardiyah,LY,61.52,31.7561,25.0865,46,8.12,0
226,port elizabeth,ZA,71.6,-33.918,25.5701,100,4.61,75
227,ranir bazar,IN,58.39,23.8333,91.3667,52,3.02,0
228,vanderhoof,CA,-5.15,54.0166,-124.0198,85,2.17,42
229,faanui,PF,81.93,-16.4833,-151.75,69,10.92,0
230,kahului,US,73.08,20.8947,-156.47,50,17.27,20
231,anadyr,RU,-11.2,64.75,177.4833,64,2.24,0
232,shimoda,JP,37.0,34.6667,138.95,66,9.04,1
233,upernavik,GL,-0.78,72.7868,-56.1549,92,15.61,63
234,katsuura,JP,44.85,35.1333,140.3,57,11.5,20
235,jizan,SA,77.0,17.3333,42.6667,83,4.61,20
236,margate,GB,32.83,51.3813,1.3862,65,1.99,98
237,roma,US,21.0,43.2128,-75.4557,50,8.05,90
238,vytegra,RU,-4.05,61.0064,36.4481,90,3.49,100
239,kodinsk,RU,-10.3,58.6881,99.1844,89,2.95,72
240,benghazi,LY,63.88,32.1167,20.0667,40,14.85,0
241,namwala,ZM,66.33,-15.7504,26.4384,96,2.37,100
242,chokurdakh,RU,-12.26,70.6333,147.9167,89,8.81,55
243,san patricio,US,76.41,28.017,-97.5169,69,19.57,75
244,kamenka,RU,23.0,51.3223,42.7678,95,1.99,100
245,sovetskiy,RU,-23.19,61.3614,63.5842,85,3.69,0
246,barrow,US,-29.2,71.2906,-156.7887,68,9.22,20
247,mayo,US,35.19,38.8876,-76.5119,65,5.75,90
248,mandal,IN,57.24,25.45,74.5667,34,2.73,7
249,pacific grove,US,56.43,36.6177,-121.9166,67,5.75,1
250,bud,US,21.0,39.447,-86.1758,90,12.39,100
251,bengkulu,ID,73.71,-3.8004,102.2655,88,4.88,69
252,les escoumins,CA,17.74,48.1111,-69.0236,49,28.77,96
253,chapais,CA,6.8,49.7834,-74.8492,61,3.44,1
254,east london,ZA,75.45,-33.0153,27.9116,89,10.98,6
255,ruzomberok,SK,26.06,49.0748,19.3075,100,5.95,99
256,cabo san lucas,MX,77.0,22.8909,-109.9124,37,3.0,0
257,gunjur,GM,71.6,13.2019,-16.7339,64,8.05,79
258,cherskiy,RU,-11.0,68.75,161.3,86,3.2,0
259,hayden,US,30.24,47.766,-116.7866,40,8.05,1
260,hutchinson,US,15.28,38.0608,-97.9298,67,13.8,90
261,el dorado,US,55.04,38.7666,-120.5177,73,1.99,47
262,marzuq,YE,53.55,14.4,46.4667,42,2.86,26
263,lorengau,PG,78.98,-2.0226,147.2712,85,14.14,100
264,maceio,BR,78.8,-9.6658,-35.7353,89,8.05,75
265,podporozhye,RU,-2.54,60.9112,34.1706,91,3.29,100
266,yulara,AU,84.2,-25.2406,130.9889,61,6.91,40
267,puerto madero,MX,82.47,14.7208,-92.4215,69,11.61,3
268,camacha,PT,62.6,33.0833,-16.3333,94,8.72,75
269,dese,ET,48.2,11.1333,39.6333,72,2.1,77
270,alofi,NU,86.0,-19.0595,-169.9187,79,9.22,75
271,kirakira,SB,84.43,-10.4544,161.9205,71,6.71,100
272,farafangana,MG,72.18,-22.8167,47.8333,92,6.02,100
273,dali,CN,40.89,25.7,100.1833,79,2.95,0
274,chor,PK,57.65,25.5167,69.7667,32,1.92,39
275,laguna,US,67.57,38.421,-121.4238,48,2.82,1
276,bafq,IR,55.56,31.6128,55.4107,34,3.04,58
277,pochutla,MX,86.0,15.7432,-96.4661,63,10.0,12
278,fortuna,US,58.1,40.5982,-124.1573,62,6.91,1
279,pevek,RU,-14.44,69.7008,170.3133,70,2.8,0
280,hofn,IS,28.4,64.2539,-15.2082,93,3.44,75
281,khani,GE,50.0,41.9563,42.9566,76,1.14,20
282,poum,NC,79.21,-20.2333,164.0167,71,12.97,33
283,shubarkuduk,KZ,28.47,49.1447,56.4872,98,11.79,100
284,zaraza,VE,78.17,9.3503,-65.3245,63,11.83,60
285,comodoro rivadavia,AR,68.0,-45.8667,-67.5,83,5.75,40
286,novobiryusinskiy,RU,-2.0,56.9578,97.7076,91,4.83,100
287,amuntai,ID,75.36,-2.4177,115.2494,95,0.29,78
288,guerrero negro,MX,60.35,27.9769,-114.0611,63,17.98,68
289,seymchan,RU,-9.42,62.8833,152.4333,87,0.27,64
290,kodiak,US,39.2,57.79,-152.4072,81,24.16,90
291,labuhan,ID,76.89,-6.8844,112.2051,88,7.7,97
292,ostersund,SE,3.2,63.1792,14.6357,85,5.75,0
293,kokstad,ZA,64.6,-30.5472,29.4241,93,2.59,98
294,lavrentiya,RU,-26.25,65.5833,-171.0,80,10.71,0
295,mhlume,SZ,73.0,-26.0333,31.85,90,3.69,11
296,bela palanka,RS,54.45,43.2183,22.3111,54,5.75,40
297,pemba,MZ,78.98,-12.974,40.5178,84,17.56,100
298,palu,ID,77.59,-0.8917,119.8707,78,2.01,95
299,brigantine,US,34.5,39.4101,-74.3646,51,4.61,40
300,pangai,TO,82.4,-19.8,-174.35,89,5.75,40
301,verkhoyansk,RU,-21.33,67.5447,133.385,80,3.06,1
302,erzin,TR,59.0,36.9559,36.2,84,1.52,2
303,zaysan,KZ,-0.11,47.4667,84.8667,88,1.41,80
304,sistranda,NO,19.4,63.7256,8.834,79,11.5,20
305,nome,US,-7.6,64.5011,-165.4064,49,6.91,1
306,beringovskiy,RU,-21.03,63.05,179.3167,86,13.73,86
307,pangnirtung,CA,5.0,66.1451,-65.7125,72,3.27,1
308,iqaluit,CA,8.6,63.7506,-68.5145,85,2.3,75
309,jalingo,NG,77.0,8.8833,11.3667,16,3.36,36
310,bonthe,SL,78.64,7.5264,-12.505,85,7.63,45
311,jardim,BR,70.93,-21.4803,-56.1381,83,6.64,100
312,loiza,PR,76.82,18.4313,-65.8802,78,11.5,40
313,mbanza-ngungu,CD,66.45,-5.25,14.8667,97,1.07,99
314,izhmorskiy,RU,-13.54,56.194,86.6414,88,10.09,100
315,coihaique,CL,89.6,-45.5752,-72.0662,27,9.22,0
316,neunkirchen,DE,19.8,49.35,7.1833,79,6.91,20
317,sabha,LY,61.84,27.0377,14.4283,28,9.04,0
318,eureka,US,57.88,40.8021,-124.1637,64,4.0,20
319,nemuro,JP,22.28,43.3236,145.575,91,11.74,95
320,chuy,UY,70.56,-33.6971,-53.4616,85,11.34,70
321,severo-yeniseyskiy,RU,-21.28,60.3725,93.0408,88,5.21,70
322,tuatapere,NZ,51.94,-46.1333,167.6833,88,14.81,100
323,koungou,YT,75.2,-12.7336,45.2042,94,2.3,0
324,zhigansk,RU,-17.07,66.7697,123.3711,85,11.34,57
325,adrar,MR,65.59,20.5022,-10.0711,21,9.42,15
326,ponta do sol,PT,57.51,32.6667,-17.1,76,3.0,84
327,yershov,RU,10.53,51.3513,48.2766,96,8.77,100
328,stornoway,GB,32.0,58.2093,-6.3865,59,9.22,0
329,porto novo,BJ,84.2,6.4965,2.6036,89,11.5,40
330,kathu,TH,77.0,7.9178,98.3332,88,2.3,20
331,rostovka,RU,-26.72,55.3842,71.8891,85,4.92,44
332,yaan,NG,81.55,7.3833,8.5667,14,3.85,17
333,walvis bay,NA,67.03,-22.9575,14.5053,82,6.91,91
334,rapar,IN,66.99,23.5667,70.6333,40,8.12,59
335,krasnyy chikoy,RU,16.83,50.3643,108.7512,94,4.88,100
336,sobolevo,RU,-2.87,54.4299,31.8996,92,5.03,52
337,breyten,ZA,59.47,-26.3018,29.987,95,6.08,47
338,snezhnogorsk,RU,8.6,69.1933,33.2531,92,6.71,75
339,shiraz,IR,44.6,29.6036,52.5388,57,1.83,0
340,havelock,US,48.7,34.8791,-76.9013,80,5.01,86
341,villazon,BO,49.98,-22.0866,-65.5942,63,13.91,78
342,doha,QA,62.74,25.2867,51.5333,88,5.75,0
343,klaksvik,FO,23.0,62.2266,-6.589,80,1.14,76
344,rocha,UY,67.96,-34.4833,-54.3333,87,7.49,74
345,palmer,US,24.73,42.1584,-72.3287,50,11.5,75
346,xam nua,LA,47.66,20.4197,104.0439,92,1.3,18
347,wiarton,CA,16.99,44.7407,-81.1332,79,5.75,90
348,boddam,GB,23.11,57.4667,-1.7833,92,2.3,4
349,homer,US,28.62,59.6425,-151.5483,86,8.9,90
350,chicama,PE,77.0,-7.8447,-79.1469,65,10.36,37
351,mashhad,IR,44.6,36.297,59.6062,61,4.61,0
352,san javier,ES,53.87,37.8063,-0.8374,81,4.61,42
353,atar,MR,66.34,20.5169,-13.0499,22,8.16,0
354,orapa,BW,71.6,-21.2833,25.3667,67,8.52,100
355,bonfim,BR,85.6,3.0833,-59.95,45,9.86,27
356,vrani,RO,53.29,45.0383,21.4925,71,13.8,100
357,kintampo,GH,80.4,8.0563,-1.7306,19,2.37,11
358,davila,PH,75.2,18.4726,120.5763,88,8.99,75
359,sabang,ID,81.59,5.8933,95.3214,75,5.26,49
360,broome,US,19.96,42.2506,-75.833,49,3.44,90
361,ketchikan,US,24.8,55.3422,-131.6461,36,6.91,1
362,bilma,NE,67.86,18.6853,12.9164,21,5.77,0
363,upata,VE,80.01,8.0086,-62.3989,74,5.99,87
364,talcahuano,CL,60.8,-36.7167,-73.1167,94,9.22,90
365,paraiso,CR,72.52,9.8383,-83.8656,53,18.41,20
366,dauphin,CA,-13.0,51.1494,-100.0502,53,13.8,75
367,sambava,MG,76.08,-14.2667,50.1667,90,3.27,100
368,kesova gora,RU,-3.5,57.5836,37.2922,93,7.74,88
369,tilichiki,RU,-7.42,60.4667,166.1,90,12.26,100
370,noumea,NC,77.5,-22.2763,166.4572,88,2.3,90
371,kaharlyk,UA,18.19,49.8623,30.8282,86,2.24,90
372,kenai,US,17.65,60.5544,-151.2583,79,14.97,90
373,dawlatabad,AF,52.79,36.4141,64.9053,47,2.35,0
374,praia da vitoria,PT,59.0,38.7333,-27.0667,67,19.95,20
375,rawlins,US,39.2,41.7911,-107.2387,38,31.07,1
376,erdenet,MN,9.57,49.0333,104.0833,96,1.59,99
377,general roca,AR,86.0,-39.0333,-67.5833,23,14.97,0
378,tsumeb,NA,64.54,-19.2333,17.7167,93,10.56,100
379,strezhevoy,RU,-20.2,60.7333,77.5889,76,8.95,0
380,milkovo,RU,19.27,54.7167,158.6167,96,2.98,100
381,makakilo city,US,76.33,21.3469,-158.0858,44,6.91,1
382,misratah,LY,66.06,32.3754,15.0925,31,12.97,0
383,pisco,PE,75.99,-13.7,-76.2167,78,5.75,90
384,kholmogory,RU,-5.8,64.2229,41.656,84,2.24,90
385,mendi,PG,63.27,-6.1761,143.6513,84,1.99,80
386,barcelos,PT,53.04,41.5388,-8.6151,94,12.66,75
387,marawi,PH,73.99,7.9986,124.2928,91,7.0,62
388,jimenez,MX,80.42,28.3333,-105.4,14,21.56,3
389,puerto escondido,MX,82.8,15.85,-97.0667,61,7.99,0
390,fukue,JP,53.73,32.6881,128.8419,50,6.85,100
391,mokrousovo,RU,-18.87,55.8103,66.7653,86,6.15,92
392,shelburne,CA,16.7,44.0787,-80.2041,63,4.61,90
393,kungurtug,RU,-2.33,50.5994,97.5228,84,1.86,99
394,cidreira,BR,74.28,-30.1811,-50.2056,84,14.61,56
395,linxia,CN,33.93,35.6003,103.2064,75,3.44,64
396,lata,PT,56.37,40.1629,-8.3327,93,1.99,100
397,juneau,US,19.4,58.3019,-134.4197,32,11.5,1
398,kimbe,PG,82.58,-5.5502,150.1429,77,1.61,93
399,peniche,PT,57.7,39.3558,-9.3811,92,14.0,92
400,bathsheba,BB,78.8,13.2167,-59.5167,61,19.57,40
401,viytivka,UA,24.75,48.426,29.5429,96,7.07,84
402,kunya,NG,64.4,12.2233,8.5325,45,3.44,0
403,biltine,TD,67.08,14.5333,20.9167,26,9.01,0
404,am timan,TD,71.69,11.0297,20.2827,19,5.06,36
405,kaeo,NZ,63.57,-35.1,173.7833,87,7.07,100
406,vestmanna,FO,23.0,62.1564,-7.1664,80,1.14,29
407,itoman,JP,62.08,26.1247,127.6694,88,21.85,75
408,san policarpo,PH,80.1,12.1791,125.5072,85,12.53,48
409,pangody,RU,-20.4,65.85,74.4859,87,14.18,100
410,comala,MX,81.68,19.3167,-103.75,36,7.16,0
411,yar-sale,RU,-22.11,66.8333,70.8333,85,13.85,100
412,praya,CV,69.8,14.9215,-23.5087,78,16.11,40
413,portobelo,PA,76.17,9.55,-79.65,99,12.03,37
414,luganville,VU,85.26,-15.5333,167.1667,61,1.97,0
415,kango,GA,77.36,0.1943,10.0951,94,2.33,100
416,vao,NC,76.17,-22.6667,167.4833,84,13.65,35
417,chumikan,RU,1.27,54.7183,135.315,87,18.5,100
418,katsuyama,JP,35.6,36.0617,136.501,93,4.61,40
419,morros,BR,74.62,-9.4467,-46.3003,84,4.21,77
420,udaipur,IN,59.45,24.5712,73.6918,31,4.56,16
421,pontes e lacerda,BR,78.44,-15.2261,-59.3353,72,2.44,80
422,sangar,RU,-13.34,63.9242,127.4739,86,1.01,88
423,longyearbyen,SJ,8.6,78.2186,15.6401,72,24.16,90
424,markova,UA,33.37,48.6758,24.4138,94,3.09,100
425,asau,RO,36.0,46.4333,26.4,71,2.53,74
426,yeppoon,AU,77.0,-23.1333,150.7333,69,8.05,90
427,excelsior springs,US,15.62,39.3392,-94.2261,67,9.22,90
428,padang,ID,73.4,-0.9492,100.3543,88,3.44,40
429,inhambane,MZ,79.0,-23.865,35.3833,83,13.73,43
430,devarkonda,IN,63.34,16.7,78.9333,69,1.23,0
431,tautira,PF,75.09,-17.7333,-149.15,78,11.5,75
432,northam,GB,28.33,51.0333,-4.2167,79,1.99,65
433,north battleford,CA,-16.6,52.7834,-108.2847,58,16.11,90
434,pio xii,BR,75.76,-3.8325,-45.1525,95,3.71,55
435,seydi,TM,44.31,39.4816,62.9137,65,8.25,0
436,san andres,CO,84.2,12.5847,-81.7006,65,11.5,20
437,benguela,AO,77.0,-12.5763,13.4055,78,6.71,100
438,muli,MV,80.58,2.9167,73.5667,76,11.65,31
439,bhan,PK,59.59,26.5583,67.7214,36,0.63,27
440,praia,CV,69.8,14.9215,-23.5087,78,16.11,40
441,eenhana,NA,73.4,-17.4667,16.3333,88,9.22,100
442,nchelenge,ZM,71.06,-9.3451,28.734,84,5.77,100
443,norman wells,CA,-25.6,65.282,-126.8329,68,3.44,75
444,buraydah,SA,53.6,26.326,43.975,94,5.19,0
445,maiquetia,VE,74.57,10.5962,-66.9548,69,7.09,34
446,oistins,BB,78.8,13.0667,-59.5333,61,19.57,40
447,magadan,RU,14.38,59.5667,150.8,89,11.05,100
448,alta floresta,BR,73.92,-9.8756,-56.0861,93,1.7,94
449,ballitoville,ZA,77.0,-29.539,31.2144,88,8.05,75
450,terrace,CA,5.0,54.5163,-128.6035,51,20.71,1
451,waipawa,NZ,65.73,-41.4122,175.5153,49,21.85,98
452,bilibino,RU,-7.6,68.0546,166.4372,86,2.57,87
453,ternate,ID,81.46,0.8,127.4,80,5.12,100
454,cockburn town,TC,77.29,21.4612,-71.1419,78,15.61,0
455,chillan,CL,87.8,-36.6066,-72.1034,37,12.66,20
456,bulri,PK,59.74,24.8667,68.3333,32,2.95,50
457,biak,ID,78.76,-0.9131,122.8766,76,1.32,100
458,dubuque,US,10.76,42.4833,-90.8668,52,11.5,20
459,hamilton,US,21.81,39.1834,-84.5333,86,9.22,90
460,itapirapua,BR,74.43,-15.8233,-50.6133,87,2.8,86
461,brae,GB,36.37,60.3964,-1.353,80,13.89,51
462,bairiki,KI,84.2,1.3292,172.9752,74,14.97,75
463,yining,CN,50.83,29.0361,114.5636,92,2.21,100
464,baykit,RU,-13.63,61.67,96.37,85,2.24,100
465,tecoanapa,MX,82.4,16.5167,-98.75,66,11.12,0
466,bhatkal,IN,73.36,13.9667,74.5667,42,4.18,52
467,auki,SB,82.4,-8.7676,160.7034,80,8.01,45
468,amaraji,BR,80.6,-8.3831,-35.4525,69,10.36,75
469,seddon,AU,83.26,-37.8068,144.8916,41,18.41,54
470,yinchuan,CN,37.87,38.4681,106.2731,70,3.42,96
471,panguna,PG,75.67,-6.3164,155.4848,88,2.21,100
472,egvekinot,RU,-25.02,66.3167,-179.1667,82,13.22,4
473,key west,US,78.31,24.5557,-81.7826,73,12.66,20
474,paoua,CF,68.49,7.2427,16.4406,23,2.37,82
475,rionegro,CO,60.78,6.1552,-75.3737,88,6.91,40
476,come,BJ,84.2,6.4076,1.882,89,11.5,40
477,slavsk,RU,5.49,55.0425,21.677,94,7.31,81
478,daru,PG,82.53,-9.0763,143.2092,82,4.79,100
479,aksha,RU,14.94,50.2814,113.2867,95,3.31,100
480,dingle,PH,76.84,10.9995,122.6711,87,1.34,44
481,catio,GW,72.09,11.2833,-15.25,87,5.77,65
482,khujner,IN,59.83,23.7833,76.6,36,2.68,76
483,svetlogorsk,BY,6.24,52.6333,29.7333,95,3.96,100
484,bera,BD,60.15,24.0833,89.6167,53,5.59,11
485,roald,NO,20.28,62.5833,6.1333,54,10.36,0
486,yanam,IN,62.92,16.7333,82.2167,94,2.62,52
487,haveli,PK,54.93,30.4502,73.6989,40,1.83,0
488,lamar,US,30.97,33.6668,-95.5836,100,14.97,90
489,macusani,PE,37.56,-14.0833,-70.4333,89,6.4,99
490,san miguel,SV,93.22,13.4833,-88.1833,34,6.91,0
491,porvoo,FI,6.26,60.3923,25.6651,92,6.91,0
492,tommot,RU,-3.12,58.9564,126.2925,88,0.65,98
493,mehamn,NO,24.8,71.0357,27.8492,58,17.27,40
494,kieta,PG,81.37,-6.2167,155.6333,81,9.26,80
495,vigrestad,NO,20.44,58.5667,5.7,62,4.61,0
496,alice springs,AU,86.56,-23.7,133.8833,58,12.66,34
497,san carlos de bariloche,AR,86.0,-41.1456,-71.3082,23,4.61,20
498,salalah,OM,75.2,17.0151,54.0924,35,8.05,0
499,kyshtovka,RU,-25.71,56.555,76.6271,85,7.58,0
500,tateyama,JP,44.37,34.9833,139.8667,57,11.5,20
501,rancho palos verdes,US,59.47,33.7445,-118.387,67,11.5,40
502,rock sound,BS,75.4,24.9,-76.2,80,15.17,79
503,aykhal,RU,-21.01,66.0,111.5,85,6.26,49
504,derzhavinsk,KZ,-3.41,51.1,66.3167,92,7.58,100
505,vardo,NO,17.58,70.3705,31.1107,73,31.07,40
506,vestmannaeyjar,IS,41.09,63.4427,-20.2734,68,26.98,92
507,davidson,US,54.43,36.1501,-86.7833,76,13.8,90
508,zambezi,ZM,67.05,-13.5432,23.1047,96,3.38,100
509,ocampo,MX,70.27,21.65,-101.5,23,11.81,15
510,taormina,IT,56.98,37.8536,15.2885,84,7.0,77
511,jalu,LY,57.02,29.0331,21.5482,33,6.38,0
512,ukiah,US,65.53,39.1502,-123.2078,42,3.44,1
513,lethem,GY,84.54,3.3803,-59.7968,45,9.82,19
514,tongchuan,CN,42.24,35.0806,109.0897,62,1.59,100
515,zeya,RU,0.88,53.75,127.2667,92,4.12,100
516,ati,TD,70.52,13.2154,18.3353,21,10.83,0
517,grindavik,IS,35.6,63.8424,-22.4338,87,13.8,40
518,sobradinho,BR,73.56,-12.8333,-39.1,84,5.77,0
519,soderhamn,SE,7.48,61.3037,17.0592,74,4.0,49
520,jonuta,MX,84.43,18.0833,-92.1333,66,4.9,1
521,luderitz,NA,66.52,-26.6481,15.1594,78,3.24,46
522,merauke,ID,81.77,-8.4667,140.3333,83,9.04,100
523,tobol,KZ,-0.45,52.6844,62.5794,93,7.38,99
524,antofagasta,CL,69.8,-23.65,-70.4,73,11.5,40
525,okhotsk,RU,21.4,59.3833,143.3,91,14.79,100
526,arshan,RU,41.0,46.2732,44.22,81,20.13,96
527,asfi,MA,58.28,32.2994,-9.2372,81,9.31,0
528,samarai,PG,83.73,-10.6167,150.6667,70,7.16,100
529,umea,SE,-13.0,63.8284,20.2597,84,3.44,0
530,sokoni,TZ,80.6,-6.4333,39.55,83,9.22,75
531,oyem,GA,70.75,1.5995,11.5793,88,2.44,100
532,jaguey grande,CU,77.0,22.5269,-81.1286,78,12.66,40
533,caxhuacan,MX,73.99,20.0667,-97.6,75,3.67,54
534,heinola,FI,3.78,61.2056,26.0381,85,4.61,99
535,zhicheng,CN,44.08,30.2956,111.5047,94,2.39,9
536,port-cartier,CA,9.91,50.0334,-66.8654,47,11.5,20
537,puerto baquerizo moreno,EC,80.6,-0.9,-89.6,89,9.22,75
538,tazovskiy,RU,-25.87,67.4667,78.7,86,8.55,100
539,gat,IL,54.34,31.61,34.7642,89,4.59,0
540,kaduqli,SD,72.12,11.0167,29.7167,22,6.93,58
541,santa cruz,BO,69.8,-17.8,-63.1667,83,8.05,90
542,sorland,NO,19.4,67.667,12.6934,86,6.91,40
543,sale,MA,53.11,34.0389,-6.8166,100,4.29,40
544,baruun-urt,MN,25.77,46.6806,113.2792,92,15.77,81
545,bulgan,MN,12.76,48.8125,103.5347,95,0.51,100
546,kandrian,PG,84.42,-6.2167,149.55,70,10.38,100
547,kalcheva,UA,48.51,45.7374,28.8141,78,8.23,85
548,columbus,US,21.65,39.9612,-82.9988,93,8.05,90
549,tiznit,MA,54.66,29.5833,-9.5,85,0.74,37
550,kuryk,KZ,45.63,43.2,51.65,66,12.53,28
551,taylorville,US,15.35,39.5489,-89.2945,86,14.97,75
