,City,Temperatures (F),Latitude,Longitude,Humidity %,Wind (mph),Cloudiness
0,kruisfontein,62.01,-34.0033,24.7314,86,1.01,54
1,khatanga,-27.2,71.9667,102.5,80,12.59,13
2,new norfolk,58.37,-42.7826,147.0587,64,1.99,100
3,rampura,57.15,30.25,75.2333,49,1.97,0
4,tullamore,34.5,53.2739,-7.4889,69,7.0,28
5,pevek,-7.49,69.7008,170.3133,82,1.01,0
6,kloulklubed,84.2,7.0419,134.2556,79,12.66,75
7,doka,59.94,13.5167,35.7667,62,10.96,0
8,bridlington,32.67,54.0831,-0.1919,84,14.0,100
9,hermanus,63.0,-34.4187,19.2345,77,8.01,6
10,economy,14.23,40.6001,-80.2248,57,6.91,20
11,maslovka,5.0,51.5535,39.2357,78,8.95,75
12,albany,23.43,42.6001,-73.9662,54,3.0,43
13,saskylakh,-36.51,71.9167,114.0833,80,11.77,43
14,hasaki,45.1,35.7333,140.8333,39,8.05,75
15,abu kamal,53.73,34.4506,40.9171,70,5.48,0
16,ahipara,72.3,-35.1667,173.1667,60,9.35,52
17,ancud,61.36,-41.8697,-73.8203,72,4.61,0
18,vila,44.01,42.0304,-8.1588,94,11.99,89
19,rikitea,77.45,-23.1203,-134.9692,72,14.38,86
20,vostok,-3.91,46.4856,135.8833,89,5.59,100
21,cherskiy,6.78,68.75,161.3,75,4.83,0
22,thompson,-27.4,55.7435,-97.8558,68,18.41,75
23,chapleau,-2.2,47.8405,-83.4034,78,4.61,20
24,vaini,77.0,-21.2,-175.2,94,14.97,90
25,bengkulu,83.35,-3.8004,102.2655,62,2.55,73
26,prince albert,-27.4,53.2001,-105.7677,62,6.91,1
27,vilcun,60.8,-38.65,-72.2333,94,4.61,75
28,cape town,64.9,-33.9258,18.4232,72,12.66,0
29,iwanai,20.35,42.9744,140.5089,93,17.4,100
30,conde,80.6,-7.2597,-34.9075,83,5.75,75
31,east london,69.93,-33.0153,27.9116,84,11.41,97
32,avarua,84.2,-21.2078,-159.775,74,10.36,91
33,chama,34.36,47.1821,8.4636,93,2.82,90
34,araouane,58.62,18.9048,-3.5265,32,10.98,0
35,beira,75.94,-19.8436,34.8389,89,4.5,100
36,cidreira,70.36,-30.1811,-50.2056,73,7.38,0
37,horasan,17.02,40.0458,42.1728,88,0.83,49
38,cururupu,74.61,-1.8283,-44.8683,96,3.15,12
39,ushuaia,50.0,-54.8,-68.3,81,4.61,75
40,yar-sale,-10.3,66.8333,70.8333,90,19.91,100
41,soe,76.39,-9.8607,124.284,86,8.25,93
42,alpine,56.8,32.835,-116.7664,72,6.91,1
43,xuanhua,28.4,40.6103,115.0447,68,3.56,0
44,montepuez,68.97,-13.1256,38.9997,97,1.23,100
45,san jeronimo,49.26,-11.9472,-75.2829,80,4.68,100
46,saint-augustin,15.33,51.226,-58.6502,92,10.0,5
47,fairbanks,-17.1,64.8378,-147.7164,76,3.56,1
48,oksfjord,23.02,70.2396,22.3479,79,10.36,20
49,todorovo,48.99,45.0883,15.9308,89,2.06,100
50,sitka,33.8,57.0531,-135.33,37,9.22,75
51,labuan,81.19,5.2767,115.2417,83,4.61,40
52,mar del plata,60.75,-38.0023,-57.5575,77,16.11,90
53,binzhou,41.0,37.3667,118.0167,35,1.99,0
54,tuktoyaktuk,-29.2,69.4541,-133.0374,75,9.22,40
55,airai,71.28,-8.9266,125.4092,85,3.96,100
56,port alfred,63.0,-33.5906,26.891,94,4.0,95
57,asau,30.0,46.4333,26.4,72,1.9,80
58,nikolskoye,12.97,59.7035,30.7861,85,6.71,75
59,tasiilaq,26.6,65.6145,-37.6368,46,5.75,20
60,kodiak,33.8,57.79,-152.4072,69,6.46,1
61,dingle,75.83,10.9995,122.6711,92,11.34,100
62,arlit,65.77,18.7369,7.3853,21,4.23,100
63,changji,14.0,44.0167,87.3167,92,2.24,100
64,norman wells,-31.0,65.282,-126.8329,75,5.75,20
65,barrow,-27.4,71.2906,-156.7887,75,6.91,1
66,voh,84.29,-20.9667,164.7,63,5.23,11
67,mataura,73.26,-46.1927,168.8643,47,2.64,100
68,inhambane,77.85,-23.865,35.3833,87,7.99,96
69,kavaratti,81.72,10.5669,72.642,65,9.26,97
70,olafsvik,35.22,64.8945,-23.7142,80,15.46,72
71,punta arenas,59.0,-53.15,-70.9167,47,10.36,75
72,rio gallegos,60.8,-51.6226,-69.2181,51,13.8,0
73,naze,68.0,28.3667,129.4833,52,12.66,20
74,buala,85.84,-8.145,159.5921,73,10.0,91
75,erzin,52.97,36.9559,36.2,82,11.5,40
76,asfi,57.52,32.2994,-9.2372,76,8.08,21
77,salalah,69.8,17.0151,54.0924,73,5.75,0
78,palaia fokaia,61.38,37.72,23.9463,63,9.22,0
79,aksu,33.08,41.1231,80.2644,76,0.92,17
80,yamada,30.31,39.4667,141.95,82,20.8,4
81,sal rei,66.2,16.1833,-22.9167,63,20.71,75
82,marsabit,68.38,2.3284,37.9899,68,18.01,97
83,jamestown,11.97,42.097,-79.2353,72,10.36,90
84,bredasdorp,57.2,-34.5322,20.0403,82,4.61,18
85,turukhansk,17.44,65.8167,87.9833,97,23.8,100
86,itarema,79.79,-2.9248,-39.9167,81,12.15,46
87,busselton,66.0,-33.65,115.3333,97,5.01,97
88,kortkeros,-18.4,61.8106,51.5806,69,8.95,40
89,puerto narino,77.0,-3.7703,-70.3831,100,4.61,75
90,merauke,85.01,-8.4667,140.3333,73,8.93,86
91,ketchikan,28.02,55.3422,-131.6461,63,5.75,1
92,hollister,58.48,36.8525,-121.4016,51,8.05,1
93,oro valley,60.4,32.3909,-110.9665,23,1.99,67
94,lucea,77.29,18.451,-78.1736,73,10.36,20
95,nichinan,59.0,31.6,131.3667,29,18.41,20
96,half moon bay,54.66,37.4636,-122.4286,87,4.61,1
97,tulun,26.22,54.5611,100.5792,95,2.93,77
98,hobart,61.72,-42.8794,147.3294,48,10.36,75
99,kiunga,94.05,-6.1219,141.2906,47,4.16,96
100,lasa,34.3,46.6166,10.7002,93,9.22,90
101,oranjemund,61.41,-28.55,16.4333,81,19.8,0
102,taylorville,6.67,39.5489,-89.2945,92,5.75,90
103,pangnirtung,19.9,66.1451,-65.7125,78,4.79,0
104,harper,78.78,4.375,-7.7169,89,5.08,43
105,ayan,-2.4,56.45,138.1667,82,21.59,100
106,okhotsk,17.51,59.3833,143.3,89,21.5,100
107,chokurdakh,-12.51,70.6333,147.9167,89,6.91,98
108,panzhihua,52.0,26.5851,101.7128,56,3.38,100
109,souillac,78.8,-20.5167,57.5167,78,8.05,40
110,komsomolskiy,39.2,40.4272,71.7189,81,4.61,97
111,zhigansk,-26.18,66.7697,123.3711,80,6.78,0
112,atuona,79.74,-9.8,-139.0333,74,20.58,8
113,hayden,28.76,47.766,-116.7866,93,3.44,20
114,mackenzie,-5.8,55.2999,-123.1698,65,5.75,1
115,christchurch,78.04,-43.5333,172.6333,28,12.66,63
116,muli,81.52,2.9167,73.5667,75,16.69,11
117,sheridan,-10.03,44.8333,-106.9173,77,3.44,1
118,rocha,63.48,-34.4833,-54.3333,88,4.74,52
119,talnakh,-16.91,69.4865,88.3972,77,3.44,55
120,vangaindrano,75.67,-23.35,47.6,92,5.06,9
121,cotonou,84.2,6.3654,2.4183,84,9.22,40
122,castro,54.75,-24.7911,-50.0119,74,6.64,0
123,sorland,35.46,67.667,12.6934,80,9.04,88
124,lebu,57.69,-37.6167,-73.65,95,0.4,80
125,butaritari,80.98,3.0707,172.7902,79,17.18,27
126,panjakent,44.6,39.4952,67.6093,76,4.79,61
127,iqaluit,32.0,63.7506,-68.5145,69,16.11,90
128,oudtshoorn,59.0,-33.5907,22.2014,88,4.61,0
129,isangel,86.0,-19.55,169.2667,70,6.91,40
130,emilio carranza,71.44,19.9711,-96.6114,81,4.68,82
131,bintulu,80.29,3.1667,113.0333,89,1.14,40
132,port augusta,75.2,-32.5,137.7667,46,10.36,0
133,husavik,28.4,66.0449,-17.3389,86,4.61,0
134,puerto ayora,77.0,-0.7393,-90.3518,95,5.77,99
135,san patricio,62.6,28.017,-97.5169,68,8.05,1
136,qaanaaq,17.1,77.484,-69.3632,85,6.71,100
137,mbour,62.6,14.422,-16.9638,72,14.97,0
138,katsuura,47.41,35.1333,140.3,31,5.99,6
139,ambon,78.8,-3.6954,128.1814,83,8.05,40
140,dalby,82.4,-27.1833,151.2667,47,13.8,90
141,moerai,81.79,-22.4333,-151.3333,71,10.76,5
142,toktogul,39.96,41.8708,72.9402,72,1.7,99
143,kaoma,66.07,-14.7833,24.8,95,6.15,100
144,bandarbeyla,75.65,9.4942,50.8122,77,18.54,82
145,kapaa,73.18,22.0752,-159.319,53,6.91,20
146,sisimiut,23.9,66.9395,-53.6735,77,20.09,2
147,bluff,64.18,-46.6,168.3333,62,8.77,100
148,qaqortoq,37.4,60.7167,-46.0333,30,42.57,100
149,dikson,-32.19,73.5069,80.5464,85,17.18,84
150,los llanos de aridane,62.6,28.6585,-17.9182,72,4.61,90
151,port elizabeth,64.4,-33.918,25.5701,77,10.36,0
152,hilo,72.55,19.7297,-155.09,61,8.05,75
153,vestmannaeyjar,39.4,63.4427,-20.2734,73,23.55,100
154,kaeo,73.0,-35.1,173.7833,68,8.99,69
155,solnechnyy,4.66,50.7214,136.6319,88,1.12,100
156,yellowknife,-36.2,62.456,-114.3525,74,9.22,40
157,muriti,72.3,-1.9833,32.9167,68,6.04,92
158,yaan,72.99,7.3833,8.5667,29,4.21,97
159,ribeira grande,58.96,38.5167,-28.7,80,17.2,24
160,kaitangata,68.0,-46.2817,169.8464,76,4.0,100
161,namatanai,84.38,-3.6667,152.4333,74,6.42,38
162,mogadishu,77.02,2.0371,45.3438,80,20.36,0
163,bethel,27.46,41.3712,-73.414,74,16.11,90
164,burnie,63.9,-41.0667,145.9167,85,5.01,10
165,ponta delgada,55.2,37.7333,-25.6667,82,11.5,75
166,houma,48.04,29.5958,-90.7195,93,5.91,1
167,sao filipe,69.1,14.8961,-24.4956,76,13.53,100
168,longyearbyen,15.8,78.2186,15.6401,38,19.57,0
169,lagoa,57.58,39.05,-27.9833,81,20.38,0
170,saint-philippe,72.66,-21.3585,55.7679,61,8.05,90
171,camana,72.1,-16.6228,-72.7111,81,5.64,67
172,pitimbu,80.6,-7.4706,-34.8086,83,5.75,75
173,malanje,63.93,-9.5402,16.341,97,7.05,100
174,severo-kurilsk,25.03,50.6789,156.125,89,13.06,19
175,linjiang,13.8,41.8069,126.9078,82,4.36,99
176,sayyan,41.92,15.1718,44.3244,71,6.51,29
177,penzance,34.39,50.1186,-5.5371,69,24.16,90
178,kahului,74.05,20.8947,-156.47,50,13.8,1
179,cayenne,78.8,4.9333,-52.3333,89,3.44,90
180,mount gambier,64.4,-37.8333,140.7667,59,13.8,90
181,lakhnau,48.2,26.85,80.9167,87,5.26,0
182,ploemeur,34.93,47.7333,-3.4333,80,8.05,0
183,ust-karsk,-2.67,52.7011,118.8077,84,3.27,84
184,hobyo,76.5,5.3505,48.5268,82,16.15,11
185,arraial do cabo,74.61,-22.9661,-42.0278,81,2.19,100
186,vao,78.58,-22.6667,167.4833,82,8.79,9
187,samoded,-17.63,63.6083,40.5111,89,4.83,59
188,bathsheba,77.0,13.2167,-59.5167,65,17.27,40
189,mahebourg,78.8,-20.4081,57.7,78,8.05,40
190,lake ridge,29.88,38.6879,-77.2978,43,3.44,1
191,benghazi,65.68,32.1167,20.0667,41,28.1,100
192,praya,68.0,14.9215,-23.5087,64,20.71,75
193,kununurra,89.6,-15.7667,128.7333,70,10.36,90
194,marzuq,55.81,14.4,46.4667,48,4.21,0
195,virginia beach,37.94,36.8529,-75.978,75,16.75,1
196,alofi,86.0,-19.0595,-169.9187,70,10.36,75
197,hithadhoo,81.72,-0.6,73.0833,74,9.89,0
198,tiksi,-28.82,71.6872,128.8694,86,5.91,52
199,manta,80.6,-0.95,-80.7333,74,2.3,90
200,byron bay,78.42,-28.65,153.6167,65,16.11,75
201,lumding,68.59,25.7535,93.1732,50,1.3,0
202,mogapinyana,67.48,-22.3667,27.6,86,4.09,100
203,broome,13.3,42.2506,-75.833,62,11.5,75
204,kjollefjord,24.28,70.9457,27.3465,92,24.0,100
205,tsabong,72.21,-26.0217,22.401,73,5.66,0
206,marsh harbour,75.02,26.5412,-77.0636,89,9.75,23
207,touros,80.6,-5.1989,-35.4608,78,10.36,20
208,george town,83.28,5.4112,100.3354,65,3.44,20
209,varkaus,1.4,62.3153,27.873,92,1.14,0
210,wajima,30.2,37.4,136.9,80,5.75,75
211,panaba,73.11,21.2833,-88.2667,94,6.67,61
212,grand-lahou,78.82,5.1367,-5.0242,89,9.51,86
213,upernavik,18.01,72.7868,-56.1549,79,4.72,50
214,polis,50.43,35.0367,32.4264,82,9.22,89
215,srivardhan,72.75,18.0333,73.0167,38,6.69,100
216,bria,58.98,6.5423,21.9863,33,5.01,67
217,alice springs,89.6,-23.7,133.8833,19,16.11,0
218,yerbogachen,26.96,61.2767,108.0108,98,8.86,100
219,hun,65.01,29.1268,15.9477,27,15.26,85
220,jinchang,37.36,38.4953,102.1739,51,2.71,27
221,ostersund,15.8,63.1792,14.6357,79,6.91,90
222,walvis bay,61.83,-22.9575,14.5053,94,16.11,98
223,yulara,91.4,-25.2406,130.9889,18,13.8,0
224,nabire,87.51,-3.3667,135.4833,59,5.5,87
225,faanui,81.97,-16.4833,-151.75,75,11.65,1
226,finschhafen,85.41,-6.6024,147.8681,75,7.94,100
227,conceicao da barra,75.2,-18.5933,-39.7322,92,4.85,100
228,jega,71.13,12.2175,4.3792,18,8.88,7
229,bubaque,79.11,11.2833,-15.8333,57,10.78,1
230,axim,79.83,4.8699,-2.2405,88,9.66,31
231,leningradskiy,-15.84,69.3833,178.4167,86,8.37,4
232,belaya gora,-21.6,68.5333,146.4167,85,3.4,100
233,kuah,86.0,6.3265,99.8432,66,6.91,20
234,provideniya,-0.42,64.3833,-173.3,84,18.97,100
235,bilibino,1.56,68.0546,166.4372,80,5.97,0
236,ulaangom,-5.1,49.9811,92.0667,90,1.23,100
237,otofuke,10.4,42.9917,143.2003,85,2.3,20
238,ponta do sol,52.2,32.6667,-17.1,76,7.0,60
239,tabou,78.84,4.423,-7.3528,90,7.83,21
240,hirara,72.34,24.8,125.2833,64,12.66,40
241,evensk,13.06,61.95,159.2333,92,45.05,100
242,lehigh acres,70.47,26.6254,-81.6248,73,6.91,90
243,san jose,57.56,37.3394,-121.895,62,8.05,75
244,rawson,57.43,-43.3002,-65.1023,64,17.07,0
245,klaksvik,35.6,62.2266,-6.589,69,14.97,75
246,port blair,81.48,11.6667,92.75,70,12.73,14
247,muros,50.88,42.7762,-9.0603,84,1.99,46
248,nanortalik,31.84,60.1432,-45.2371,86,16.71,94
249,grand gaube,79.0,-20.0064,57.6608,79,4.0,24
250,hami,38.41,42.8,93.45,59,3.8,47
251,bambous virieux,78.89,-20.3428,57.7575,78,8.05,40
252,llaillay,66.99,-32.85,-70.9667,99,0.34,0
253,coquimbo,60.8,-29.9533,-71.3436,77,5.75,0
254,faya,50.9,18.3851,42.4509,53,3.44,0
255,huarmey,71.64,-10.0681,-78.1522,77,7.92,100
256,petropavlovka,6.87,50.6114,105.3196,88,2.84,92
257,daru,90.12,-9.0763,143.2092,57,4.16,56
258,barsovo,6.8,61.1667,73.1667,85,11.18,40
259,miri,82.2,4.4148,114.0089,89,3.44,40
260,luderitz,68.05,-26.6481,15.1594,47,24.92,0
261,quatre cocos,78.91,-20.2078,57.7625,78,8.05,40
262,yenagoa,78.3,4.9247,6.2642,91,1.54,98
263,kieta,84.61,-6.2167,155.6333,75,8.81,51
264,georgetown,83.28,5.4112,100.3354,65,3.44,20
265,igrim,-6.54,63.1906,64.4162,91,8.46,100
266,saint george,55.99,37.1041,-113.5841,17,6.91,1
267,mglin,-4.0,53.0591,32.8475,92,2.13,26
268,zaria,64.08,11.1113,7.7227,26,7.61,2
269,warrington,33.69,53.3925,-2.5802,64,16.11,75
270,wembley,70.7,-31.9333,115.8,83,16.11,40
271,izumo,41.0,35.3667,132.7667,81,4.61,75
272,acapulco,80.6,16.8634,-99.8901,78,9.22,20
273,kamaishi,28.4,39.2667,141.8833,54,9.22,75
274,anadyr,8.6,64.75,177.4833,61,17.9,100
275,sunndalsora,17.38,62.6754,8.5515,68,3.44,75
276,rosarito,53.89,32.3333,-117.0333,93,8.05,1
277,calama,59.0,-22.4667,-68.9333,63,16.11,0
278,camacha,60.8,33.0833,-16.3333,88,16.11,75
279,klyuchi,24.39,52.2667,79.1667,98,13.65,100
280,kastornoye,-5.53,51.8334,38.1302,91,6.64,44
281,geraldton,73.4,-28.7667,114.6,68,17.27,75
282,westport,29.35,41.1415,-73.3579,86,3.44,90
283,udachnyy,-27.04,66.4167,112.4,83,4.59,77
284,carnarvon,82.4,-24.8667,113.6333,100,14.97,40
285,nizwa,54.86,22.9333,57.5333,57,3.67,8
286,petrolina de goias,68.32,-16.095,-49.3381,100,2.3,75
287,pyshchug,-20.56,58.8873,45.7134,86,8.72,100
288,constitucion,57.49,-35.3333,-72.4167,91,7.11,2
289,aklavik,-24.75,68.2191,-135.0107,75,10.36,100
290,terrace,19.4,54.5163,-128.6035,68,13.8,20
291,college,-19.52,64.8569,-147.8028,83,4.65,20
292,te anau,66.04,-45.4167,167.7167,65,4.88,100
293,port hedland,87.8,-20.3167,118.5667,45,11.5,40
294,berlevag,24.69,70.8578,29.0864,91,26.66,100
295,hamilton,16.7,39.1834,-84.5333,45,4.61,90
296,kavieng,84.63,-2.5744,150.7967,71,8.28,18
297,clyde river,-5.8,70.4692,-68.5914,84,13.8,75
298,deputatskiy,-19.52,69.3,139.9,86,2.68,59
299,tuatapere,63.88,-46.1333,167.6833,78,3.47,100
300,bac lieu,81.36,9.285,105.7244,67,17.18,0
301,shakawe,67.95,-18.3667,21.85,95,3.04,100
302,nador,49.68,35.174,-2.9287,76,3.44,0
303,kirakira,84.99,-10.4544,161.9205,72,9.19,12
304,kiama,71.15,-34.6833,150.8667,74,1.01,54
305,caravelas,75.96,-17.7125,-39.2481,93,6.13,100
306,karratha,83.55,-20.7377,116.8463,58,10.71,1
307,paka,78.4,4.6374,103.4368,89,4.61,40
308,bosaso,72.84,11.2842,49.1816,81,2.57,1
309,puerto del rosario,62.6,28.5004,-13.8627,67,8.05,90
310,fortuna,44.98,40.5982,-124.1573,93,5.75,1
311,wiwili,69.93,13.6268,-85.8254,80,2.82,1
312,nuuk,30.09,64.1835,-51.7216,40,4.61,20
313,mitsamiouli,82.65,-11.3847,43.2844,79,15.26,100
314,san rafael,71.82,-34.6177,-68.3301,44,17.4,74
315,vila velha,69.91,-20.3297,-40.2925,94,3.44,90
316,springbok,56.16,-29.6643,17.8865,36,3.33,0
317,supe,70.93,-10.8,-77.7333,77,6.64,100
318,logansport,1.58,40.7545,-86.3567,71,2.26,75
319,mumford,80.13,5.2618,-0.759,86,11.97,33
320,amahai,87.06,-3.3333,128.9167,62,3.31,30
321,hornepayne,-15.86,49.2138,-84.7705,86,7.7,73
322,dingwall,29.39,57.5953,-4.4272,80,2.3,43
323,garowe,67.26,8.4054,48.4845,85,8.3,44
324,bundaberg,78.06,-24.85,152.35,94,16.11,90
325,chernyshevskiy,0.46,63.0128,112.4714,94,6.26,100
326,oktyabrskiy,-7.19,54.4815,53.471,88,13.91,100
327,hualmay,71.62,-11.0964,-77.6139,77,8.25,100
328,chokwe,72.63,-24.5333,32.9833,92,4.54,89
329,paveh,37.54,35.0434,46.3565,90,2.44,35
330,siena,44.62,43.2167,11.4,87,1.01,90
331,suez,57.45,29.9737,32.5263,55,2.66,0
332,gazojak,44.64,41.1875,61.4036,84,7.25,100
333,makakilo city,75.99,21.3469,-158.0858,47,6.91,1
334,goshogawara,21.88,40.8044,140.4414,93,17.27,75
335,pontianak,80.6,-0.0333,109.3333,83,4.61,40
336,aksarka,-16.28,66.5606,67.7975,88,26.04,100
337,tongchuan,43.88,35.0806,109.0897,54,5.23,0
338,sao jose da coroa grande,77.41,-8.8978,-35.1478,84,7.18,76
339,karlshamn,22.12,56.1706,14.8619,100,10.36,90
340,mao,51.8,39.8885,4.2658,76,9.22,0
341,samarai,85.53,-10.6167,150.6667,70,5.17,84
342,haines junction,-20.2,60.7522,-137.5108,76,1.48,13
343,ustyuzhna,-8.14,58.8394,36.4321,89,3.74,99
344,jieshi,68.0,22.8134,115.8257,77,17.02,0
345,tigil,27.09,57.8,158.6667,91,16.98,1
346,fukue,48.2,32.6881,128.8419,57,18.41,40
347,lavrentiya,-8.91,65.5833,-171.0,85,9.15,5
348,chuzhou,44.01,32.3219,118.2978,53,5.01,99
349,kutum,50.04,14.2,24.6667,44,9.28,0
350,pochutla,78.4,15.7432,-96.4661,73,9.22,40
351,port moresby,89.6,-9.4431,147.1797,62,11.5,40
352,sault sainte marie,4.05,46.5168,-84.3333,61,14.97,1
353,soubre,74.7,5.7856,-6.6083,94,3.0,52
354,vilnius,0.39,54.6892,25.2798,85,5.75,0
355,suchedniow,16.32,51.0478,20.8292,1,20.94,100
356,margate,31.42,51.3813,1.3862,75,7.0,100
357,stokmarknes,26.47,68.5646,14.9108,69,1.01,50
358,novoagansk,5.95,61.9449,76.6625,94,12.08,100
359,pecos,60.8,31.4229,-103.4932,11,9.22,1
360,esperance,82.4,-33.8667,121.9,51,24.16,15
361,katherine,84.2,-14.4667,132.2667,74,9.22,75
362,matanzas,71.6,23.0411,-81.5775,88,4.61,20
363,mahibadhoo,81.46,3.7833,72.9667,74,13.87,0
364,gondal,62.6,21.9667,70.8,39,4.61,0
365,galesong,86.0,-5.3166,119.3661,70,8.05,40
366,lata,52.34,40.1629,-8.3327,92,1.01,50
367,olinda,78.8,-8.0089,-34.8553,69,8.05,40
368,poum,81.28,-20.2333,164.0167,69,8.59,2
369,martapura,82.4,-3.4167,114.85,83,4.61,40
370,aykhal,-23.73,66.0,111.5,84,5.06,81
371,nyandoma,-20.9,61.669,40.1991,88,6.04,42
372,grindavik,33.8,63.8424,-22.4338,75,14.97,0
373,sola,81.46,-13.8833,167.55,71,3.89,46
374,villazon,52.72,-22.0866,-65.5942,73,8.99,94
375,bonavista,26.8,48.6499,-53.1147,74,8.05,11
376,dharur,64.33,18.8167,76.1167,28,4.79,55
377,raudeberg,23.0,61.9875,5.1352,62,7.25,0
378,ginda,53.89,30.6945,78.4932,35,3.44,0
379,poso,86.81,-1.3959,120.7524,59,4.61,31
380,high rock,73.4,26.6208,-78.2833,88,3.44,90
381,golyshmanovo,-2.06,56.3979,68.3728,93,6.51,86
382,arruda dos vinhos,52.84,38.9841,-9.0775,3,17.0,6
383,ostrovnoy,17.13,68.0531,39.5131,94,11.61,100
384,chapais,6.8,49.7834,-74.8492,85,5.75,90
385,north bend,45.88,43.4065,-124.2243,76,6.91,90
386,meulaboh,80.98,4.1363,96.1285,75,3.4,100
387,along,63.45,28.1667,94.7667,32,0.65,0
388,loukhi,11.95,66.0764,33.0381,93,10.22,5
389,ushibuka,50.97,32.1906,130.0228,60,23.44,18
390,douentza,70.03,14.9951,-2.9517,23,6.38,97
391,batsfjord,23.27,70.6345,29.7185,91,24.52,100
392,tabory,-3.35,58.5198,64.5495,90,8.7,100
393,glasgow,33.6,55.8652,-4.2576,75,8.05,45
394,portland,43.32,45.5234,-122.6762,71,1.99,98
395,torbay,28.8,47.6666,-52.7314,74,21.85,75
396,chuy,64.45,-33.6971,-53.4616,84,6.58,11
397,broken hill,77.0,-31.95,141.4333,31,12.66,0
398,tupik,-4.49,54.4253,119.9327,82,1.52,100
399,vohma,9.73,58.6283,25.5483,96,2.95,79
400,lagos,82.4,6.5833,3.75,89,3.67,40
401,praia da vitoria,56.1,38.7333,-27.0667,82,12.95,20
402,kotovo,-1.16,50.3211,44.8012,91,11.1,44
403,scottsbluff,6.8,41.8666,-103.6672,72,8.05,90
404,palauig,84.83,15.435,119.9045,56,3.24,83
405,tatawin,57.2,32.9297,10.4518,38,12.66,0
406,ghanaur,53.73,30.3322,76.6072,59,4.27,0
407,sao gotardo,64.99,-19.3111,-46.0489,100,1.41,100
408,cabo san lucas,66.07,22.8909,-109.9124,63,4.61,40
409,tifton,41.59,31.4505,-83.5085,100,4.94,1
410,petropavl,2.19,54.8753,69.1628,93,10.4,46
411,victoria,68.36,22.2855,114.1577,80,1.01,14
412,harrisonville,9.99,38.6533,-94.3488,85,9.22,90
413,mareeba,86.88,-17.0,145.4333,70,5.75,100
414,pemangkat,80.92,1.1667,108.9667,79,8.52,8
415,elat,59.0,29.5581,34.9482,72,4.61,0
416,san quintin,59.07,30.4833,-115.95,75,5.99,0
417,adrar,54.73,20.5022,-10.0711,39,10.4,0
418,fomboni,82.45,-12.28,43.7425,78,13.65,100
419,middelburg,55.47,-25.7751,29.4648,77,4.68,59
420,saint albans,28.54,51.75,-0.3333,80,19.57,90
421,vila do maio,68.0,15.1333,-23.2167,64,20.71,75
422,krylovskaya,24.82,46.3194,39.9711,97,10.2,100
423,saldanha,60.8,-33.0117,17.9442,77,5.75,0
424,saint pete beach,58.46,27.7253,-82.7412,77,9.22,1
425,novikovo,3.2,51.1537,37.8879,92,4.45,72
426,bolshaya sosnova,-14.94,57.6713,54.6029,87,12.91,100
427,plouzane,37.4,48.3833,-4.6167,75,14.97,90
428,malpe,73.4,13.35,74.7167,49,5.75,97
429,acajutla,77.43,13.5928,-89.8275,77,6.85,0
430,tura,63.45,25.5198,90.2201,40,2.53,0
431,capaci,56.79,38.1711,13.2393,82,11.5,0
432,vigia,77.0,-0.8583,-48.1417,83,3.44,40
433,tommot,-13.41,58.9564,126.2925,82,1.25,0
434,copiapo,60.8,-27.3667,-70.3333,77,8.05,0
435,zalantun,3.09,48.0,122.7167,82,8.79,0
436,brawley,68.0,32.9787,-115.5303,26,3.44,1
437,ouallam,74.01,14.3188,2.0866,19,10.63,0
438,luau,65.98,-10.7073,22.2247,97,4.12,100
439,aripuana,71.58,-9.1667,-60.6333,99,1.92,99
440,lompoc,53.4,34.6391,-120.4579,87,8.05,1
441,bismil,34.7,37.8486,40.6658,100,2.3,0
442,tigzirt,53.35,36.8886,4.1198,74,15.73,75
443,lewiston,22.5,44.1003,-70.2148,93,10.36,90
444,skibbereen,35.6,51.55,-9.2667,64,20.71,90
445,richards bay,73.06,-28.783,32.0377,94,6.08,51
446,guanica,71.87,17.9716,-66.908,80,7.96,60
447,yingkou,21.38,40.6648,122.2283,74,6.53,0
448,tehri,58.78,30.3833,78.4833,32,3.15,0
449,hambantota,78.8,6.1241,81.1185,89,6.91,20
450,plymouth,32.0,41.8334,-70.8328,86,8.05,90
451,tazmalt,48.92,36.3868,4.3989,75,8.28,76
452,dauriya,-1.97,49.9333,116.8667,90,3.06,32
453,astoria,41.36,46.1879,-123.8313,81,9.22,90
454,alekseyevsk,26.2,57.8406,108.3492,95,12.06,100
455,kalmunai,79.25,7.4167,81.8167,84,14.65,46
456,cap malheureux,79.0,-19.9842,57.6142,79,4.0,19
457,senigallia,50.36,43.7093,13.2167,81,2.3,75
458,kamenka,-8.0,51.3223,42.7678,91,8.37,70
459,mpika,62.74,-11.8343,31.4529,95,8.23,100
460,innisfail,87.21,-17.5333,146.0333,69,7.43,100
461,rameswaram,78.22,9.2833,79.3,75,22.55,80
462,amga,-20.81,60.8953,131.9608,84,1.57,93
463,karaton,81.07,-6.3424,106.1045,89,9.22,75
464,portree,28.99,57.4129,-6.1942,83,5.99,0
465,nome,-2.45,64.5011,-165.4064,77,3.44,1
466,changping,33.85,40.2186,116.2197,44,2.24,0
467,nouadhibou,62.6,20.931,-17.0347,77,19.57,0
468,camopi,71.94,3.1655,-52.3158,98,1.66,100
469,riedlingen,34.27,48.1545,9.4756,96,4.59,100
470,talikota,70.3,16.4833,76.3167,37,11.23,61
471,moranbah,96.42,-22.0016,148.0466,37,4.25,39
472,abensberg,31.89,48.8167,11.85,93,5.75,100
473,shingu,53.6,33.7333,135.9833,47,17.27,20
474,tema,82.4,5.667,-0.0166,89,12.66,40
475,druten,23.0,51.8833,5.6,91,21.0,100
476,whitehorse,-7.8,60.7161,-135.0538,84,3.44,40
477,paamiut,27.18,61.994,-49.6678,84,10.22,74
478,nerchinskiy zavod,-12.03,51.3088,119.61,87,4.32,24
479,cuiluan,0.43,47.72,128.648,85,7.49,13
480,raga,54.21,8.4596,25.678,39,2.3,3
481,la cruz,57.99,23.9167,-106.9,93,2.68,97
482,brae,31.35,60.3964,-1.353,89,3.13,86
483,kabalo,70.81,-6.05,26.9167,93,0.89,100
484,utrecht,22.78,52.0,5.25,89,11.99,100
485,washougal,42.64,45.5826,-122.3534,78,6.02,98
486,tautira,86.0,-17.7333,-149.15,66,12.66,20
487,hofn,37.49,64.2539,-15.2082,82,15.26,100
488,port lincoln,65.17,-34.7333,135.8667,70,16.75,31
489,jalu,67.5,29.0331,21.5482,24,18.07,100
490,san cristobal,67.32,7.7669,-72.225,86,0.85,100
491,pointe michel,77.04,15.25,-61.3833,74,15.12,2
492,progreso,75.99,21.2833,-89.6667,85,11.23,0
493,homer,25.5,59.6425,-151.5483,74,4.61,1
494,ystad,24.12,55.4297,13.8204,68,21.85,90
495,kindu,69.26,-2.95,25.95,86,1.12,100
496,mizdah,54.93,31.4451,12.9801,40,16.87,0
497,durango,58.53,24.8333,-104.8333,31,8.1,100
498,smidovich,-3.19,48.6,133.8167,87,10.67,49
499,madang,84.6,-5.2246,145.7966,70,4.81,92
500,the valley,77.92,18.217,-63.0578,69,8.05,20
501,san andres,80.6,12.5847,-81.7006,78,9.22,40
502,bogorodskoye,-10.98,56.55,37.8833,88,4.5,16
503,piacabucu,77.83,-10.4056,-36.4344,81,11.9,100
504,atar,57.07,20.5169,-13.0499,39,8.55,0
505,zabid,71.64,14.1951,43.3152,78,2.06,87
506,polignano a mare,53.02,40.9959,17.2159,100,9.22,75
507,odessa,28.2,46.4775,30.7326,100,20.13,90
508,champerico,64.99,14.3,-91.9167,93,6.89,0
509,san javier,55.78,37.8063,-0.8374,58,8.05,0
510,halifax,26.1,44.6453,-63.5724,93,14.97,100
511,uige,68.58,-7.6087,15.0613,96,2.44,100
512,esso,19.71,55.9333,158.7,91,23.15,100
513,kalemie,71.51,-5.9475,29.1947,82,6.15,100
514,grand-santi,72.88,4.25,-54.3833,97,2.48,100
515,comodoro rivadavia,59.0,-45.8667,-67.5,67,5.75,0
516,ewa beach,76.17,21.3156,-158.0072,47,6.91,1
517,oussouye,68.0,12.485,-16.5469,56,2.3,0
518,atambua,80.76,-9.1061,124.8925,79,6.26,100
519,ko samui,82.4,9.5357,99.9357,78,13.8,40
520,lillooet,28.63,50.6856,-121.942,86,12.66,90
521,darab,51.71,28.7519,54.5444,73,3.04,47
522,mandan,-12.14,46.8267,-100.8896,84,2.95,20
523,wakkanai,21.2,45.4094,141.6739,68,21.85,75
524,george,59.0,-33.963,22.4617,88,4.61,0
525,corrente,72.7,-3.7367,-43.3394,96,1.9,12
526,nalgonda,66.76,17.05,79.2667,37,3.94,85
527,akhalgori,37.4,42.126,44.4833,87,3.44,0
528,annau,53.6,37.8876,58.516,71,11.5,75
529,sechura,77.83,-5.5569,-80.8222,65,13.98,99
530,guerrero negro,63.23,27.9769,-114.0611,56,11.27,0
531,havoysund,24.8,70.9963,24.6622,68,13.8,75
532,kargil,4.73,34.5667,76.1,73,0.92,100
533,abonnema,80.6,4.7084,6.7931,89,3.89,20
534,braganca paulista,66.2,-22.94,-46.5556,77,4.61,75
535,zverinogolovskoye,-8.79,54.4586,64.8542,89,8.55,0
536,petropavlovsk-kamchatskiy,24.8,53.0452,158.6483,86,11.18,90
537,tiarei,86.0,-17.5333,-149.3333,66,12.66,20
538,palmar,70.05,9.8728,-84.4553,73,12.66,0
539,jumla,47.93,29.2747,82.1838,40,3.76,0
540,krasnovishersk,-21.59,60.4078,57.082,85,6.11,100
541,red wing,-2.9,44.5625,-92.5338,50,8.05,90
542,banda aceh,81.52,5.5577,95.3222,76,9.8,2
543,irece,70.95,-11.3042,-41.8558,83,5.82,97
544,isla aguada,75.87,18.7833,-91.4667,84,8.63,0
545,acarau,79.11,-2.8856,-40.12,84,11.9,34
546,ichhawar,46.4,23.0167,77.0167,87,2.3,0
547,mosquera,55.4,4.7059,-74.2302,94,2.3,40
548,bireun,82.4,5.203,96.7009,69,4.38,46
549,otane,82.0,-39.8833,176.6333,47,11.01,4
550,zhezkazgan,32.0,47.8043,67.7144,93,22.37,90
551,beloha,74.66,-25.1667,45.05,96,4.0,21
552,emerald,92.7,-23.5333,148.1667,52,8.05,75
553,pingliang,40.53,35.5392,106.6861,57,3.56,0
554,mantua,45.99,45.1667,10.7833,97,3.0,19
555,novyy yegorlyk,23.77,46.3927,41.8716,93,4.7,100
556,yurty,28.56,56.0498,97.6348,95,6.62,67
557,sabang,82.31,5.8933,95.3214,76,16.69,4
558,rio bueno,68.0,-40.3167,-72.9667,80,2.3,0
559,vanimo,85.69,-2.6741,141.3028,64,4.18,100
560,pangody,4.71,65.85,74.4859,94,6.8,100
561,cap-aux-meules,24.8,47.3821,-61.8597,74,6.91,100
562,norfolk,27.07,42.1668,-71.2495,86,9.22,96
563,veriora,14.0,58.0079,27.3551,85,5.75,90
564,luganville,85.95,-15.5333,167.1667,54,4.54,4
565,llanes,53.01,43.4198,-4.7549,68,5.01,100
566,gornopravdinsk,0.03,60.05,69.9,91,11.16,100
